     3.03           OBSERVATION DATA    Mixed(MIXED)        RINEX VERSION / TYPE
cnvtToRINEX 3.09.0  REGINA              14-Feb-19 08:01 UTC PGM / RUN BY / DATE
----------------------------------------------------------- COMMENT
JFNG                                                        MARKER NAME
21602M006                                                   MARKER NUMBER
GEODETIC                                                    MARKER TYPE
Automatic           CNES                                    OBSERVER / AGENCY
5038K70408          TRIMBLE NETR9       5.37                REC # / TYPE / VERS
5116354160          TRM59800.00     NONE                    ANT # / TYPE
 -2279829.2868  5004706.2954  3219776.2724                  APPROX POSITION XYZ
        0.0000        0.0000        0.0000                  ANTENNA: DELTA H/E/N
R   16 C1C C1P C2C C2P D1C D1P D2C D2P L1C L1P L2C L2P S1C  SYS / # / OBS TYPES
       S1P S2C S2P                                          SYS / # / OBS TYPES
G   16 C1C C2W C2X C5X D1C D2W D2X D5X L1C L2W L2X L5X S1C  SYS / # / OBS TYPES
       S2W S2X S5X                                          SYS / # / OBS TYPES
J   12 C1C C2X C5X D1C D2X D5X L1C L2X L5X S1C S2X S5X      SYS / # / OBS TYPES
S    8 C1C C5I D1C D5I L1C L5I S1C S5I                      SYS / # / OBS TYPES
C   12 C2I C6I C7I D2I D6I D7I L2I L6I L7I S2I S6I S7I      SYS / # / OBS TYPES
E   16 C1X C5X C7X C8X D1X D5X D7X D8X L1X L5X L7X L8X S1X  SYS / # / OBS TYPES
       S5X S7X S8X                                          SYS / # / OBS TYPES
    30.000                                                  INTERVAL
  2019     2    14     7     0    0.0000000     GPS         TIME OF FIRST OBS
  2019     2    14     7    59   30.0000000     GPS         TIME OF LAST OBS
     0                                                      RCV CLOCK OFFS APPL
  9 R03  5 R04  6 R05  1 R13 -2 R14 -7 R15  0 R17  4 R23  3 GLONASS SLOT / FRQ #
    R24  2                                                  GLONASS SLOT / FRQ #
R L1P  0.25000                                              SYS / PHASE SHIFT
R L2C -0.25000                                              SYS / PHASE SHIFT
R L2P  0.00000                                              SYS / PHASE SHIFT
G L2X -0.25000                                              SYS / PHASE SHIFT
J L2X -0.25000                                              SYS / PHASE SHIFT
    18                                                      LEAP SECONDS
    58                                                      # OF SATELLITES
   C01   120   120   120   120   119   119   120   120   120PRN / # OF OBS
   C02   120   120   120   120   119   119   120   120   120PRN / # OF OBS
   C03   120   120   120   120   119   119   120   120   120PRN / # OF OBS
   C04   120   120   120   120   119   119   120   120   120PRN / # OF OBS
   C05   107   107   107   107    14    14   102   101   101PRN / # OF OBS
   C06   120   120   120   120   119   119   120   120   120PRN / # OF OBS
   C07   120   120   120   120   119   119   120   120   120PRN / # OF OBS
   C09   120   120   120   120   119   119   120   120   120PRN / # OF OBS
   C10   120   120   120   120   119   119   120   120   120PRN / # OF OBS
   C11   120   120   120   120   119   119   120   120   120PRN / # OF OBS
   C16   120   120   120   120   119   119   120   120   120PRN / # OF OBS
   C18   120   120     0   120   119     0   120   120     0PRN / # OF OBS
   C23   120   120     0   120   119     0   120   120     0PRN / # OF OBS
   C25   120   120     0   120   119     0   120   120     0PRN / # OF OBS
   C28   120   120     0   120   119     0   118   118     0PRN / # OF OBS
   E02   120   120   120   120   120   119   119   119   120PRN / # OF OBS
   E03   120   120   120   120   120   119   119   119   120PRN / # OF OBS
   E05   120   120   120   120   120   119   119   119   120PRN / # OF OBS
   E08     1     1     1     1     1     0     0     0     1PRN / # OF OBS
   E09    56    56    56    56    56    55    55    55    55PRN / # OF OBS
   E11    82    82    82    82    82    81    81    81    82PRN / # OF OBS
   E12    78    78    78    78    78    77    77    77    78PRN / # OF OBS
   E14   120   120   120   120   120   119   119   119   120PRN / # OF OBS
   E24   120   120   120   120   120   119   119   119   120PRN / # OF OBS
   E25   120   120   120   120   120   119   119   119   120PRN / # OF OBS
   G03   120   120   120   120   120   119   119   119   119PRN / # OF OBS
   G08    75    62    68    74    75    60    67    72    68PRN / # OF OBS
   G09    65    59    65    65    65    58    63    64    63PRN / # OF OBS
   G14    99    75     0     0    99    74     0     0    92PRN / # OF OBS
   G16   120   120     0     0   120   119     0     0   120PRN / # OF OBS
   G21   118   111     0     0   118   106     0     0   111PRN / # OF OBS
   G22    75    75     0     0    75    74     0     0    74PRN / # OF OBS
   G23   120   120     0     0   120   119     0     0   120PRN / # OF OBS
   G26   120   120   120   120   120   119   119   119   120PRN / # OF OBS
   G27   120   120   120   120   120   119   119   119   120PRN / # OF OBS
   G31   120   120   120     0   120   119   119     0   120PRN / # OF OBS
   G32    30    10    21    22    30     7    18    20    25PRN / # OF OBS
   J01   100   100   100   100    97    97    83   100   100PRN / # OF OBS
   J02   120   120   120   120   119   119   120   120   120PRN / # OF OBS
   J03   120   120   120   120   119   119   120   120   120PRN / # OF OBS
   J07   120   120   120   120   119   119   120   120   120PRN / # OF OBS
   R03    83    83    83    83    83    82    82    82    83PRN / # OF OBS
   R04   120   120   120   120   120   119   119   119   120PRN / # OF OBS
   R05   120   120   120   120   120   119   119   119   120PRN / # OF OBS
   R13   120   120   120   120   120   119   119   119   120PRN / # OF OBS
   R14   120   120   120   120   120   119   119   119   120PRN / # OF OBS
   R15   120   120   120   120   120   119   119   119   120PRN / # OF OBS
   R17   117   116   113   114   117   114   110   111   117PRN / # OF OBS
   R23   120   120   111   119   120   119   109   117   120PRN / # OF OBS
   R24   120   120   120   120   120   119   119   119   120PRN / # OF OBS
   S22   120   120   120   119   120   120   120   120      PRN / # OF OBS
   S27    64    64    64    29    64     0    64    64      PRN / # OF OBS
   S28    40     0    40     0    40     0    40     0      PRN / # OF OBS
   S29   120     0   120     0   120     0   120     0      PRN / # OF OBS
   S30   120     0   120     0   120     0   120     0      PRN / # OF OBS
   S32   120     0   120     0   120     0   120     0      PRN / # OF OBS
   S37   120     0   120     0   120     0   120     0      PRN / # OF OBS
   S40   120     0   120     0   120     0   120     0      PRN / # OF OBS
DBHZ                                                        SIGNAL STRENGTH UNIT
                                                            END OF HEADER
> 2019 02 14 07 00  0.0000000  0 49
C01  37349803.602 6  37349788.938 7  37349794.781 7        37.270 6                                 194490209.372 6 158039162.623 7 150392119.345 7        40.800          42.800          44.100
C02  37829222.820 6  37829212.707 7  37829217.152 7       -18.785 6                                 196986669.572 6 160067754.595 7 152322552.496 7        37.600          42.400          43.400
C03  36799220.750 6  36799209.641 7  36799215.738 7        25.242 6                                 191623179.825 6 155709481.018 7 148175167.898 7        41.800          43.800          43.900
C04  38689797.109 6  38689785.543 6  38689791.105 6        21.426 6                                 201467956.251 6 163709116.367 6 155787727.849 6        36.500          40.700          39.400
C06  36317142.195 7  36317128.996 7  36317137.117 7      -912.703 7                                 189112883.465 7 153669651.982 7 146234048.596 7        45.000          46.800          46.000
C07  36246176.078 7  36246160.621 8  36246169.410 7      -209.063 7                                 188743369.494 7 153369392.218 8 145948324.002 7        47.800          48.200          47.500
C09  35713914.203 7  35713900.828 7  35713910.652 8      -427.570 7                                 185971713.972 7 151117200.303 7 143805109.629 8        46.800          47.600          48.400
C10  36997901.828 7  36997888.730 7  36997898.977 7       -66.445 7                                 192657813.316 7 156550233.789 7 148975238.020 7        44.500          45.200          45.800
C11  23451077.828 7  23451065.605 7  23451075.047 7      1239.242 7                                 122115952.665 7  99229182.172 7  94427806.038 7        45.800          46.600          46.400
C16  36533105.250 7  36533094.953 7  36533105.336 7     -1007.656 7                                 190237455.797 7 154583530.361 7 147103659.499 7        47.000          44.900          45.100
C18  36918519.984 7  36918511.746 7                       -40.676 7                                 192244432.885 7 156214323.098 7                        47.000          45.900
C23  22772771.648 8  22772755.664 8                       805.898 8                                 118583827.200 8  96359022.949 8                        49.200          49.600
C25  22929129.992 8  22929120.176 8                      -987.930 8                                 119398025.080 8  97020692.339 8                        48.300          48.400
C28  26287801.617 5  26287797.227 5                      3093.645 5                                 136887476.995 5 111232263.414 5                        33.000          34.000
E02  27456695.703 5  27456703.824 7  27456699.352 6  27456701.555 7      1613.750 5                                                 144285910.562 5 107746006.923 7 110556756.495 6 109151377.314 7        35.600          42.000          40.300          44.100
E03  24919429.617 7  24919435.613 8  24919432.605 8  24919433.715 8       976.574 7                                                 130952499.332 7  97789245.119 8 100340249.497 8  99064742.407 8        47.800          48.400          49.000          51.200
E05  24051953.641 8  24051960.379 8  24051956.914 8  24051958.188 8     -1706.719 8                                                 126393871.833 8  94385034.981 8  96847253.155 8  95616144.177 8        50.300          51.200          51.200          53.800
E09  25212703.844 5  25212714.816 6  25212709.504 6  25212712.246 7     -3037.688 5                                                 132493583.260 5  98940016.469 6 101521045.014 6 100230525.352 7        35.800          41.400          39.800          43.900
E14  17816155.875 8  17816170.555 8  17816166.863 8  17816168.297 8      2180.027 8                                                  93624545.143 8  69914458.569 8  71738312.827 8  70826385.308 8        48.800          50.900          50.800          53.200
E24  22808383.258 8  22808399.984 8  22808396.363 8  22808397.508 8     -1339.133 8                                                 119858898.767 8  89505032.334 8  91839945.190 8  90672489.362 8        48.000          49.600          49.500          51.800
E25  23593174.969 8  23593181.605 8  23593177.660 8  23593179.016 8       303.672 8                                                 123982990.419 8  92584705.508 8  94999959.094 8  93792331.909 8        49.300          51.400          51.100          53.800
G03  23387790.961 7  23387800.293 4  23387800.391 6  23387801.281 7     -1507.813 7                                                 122903596.345 7  95769126.173 4  95769108.190 6  91778727.284 7        44.100          28.300          41.100          45.200
G14  22092441.852 7  22092448.297 5                                     -2794.949 7                                                 116096541.695 7  90464890.224 5                                        43.400          31.200
G16  20352693.063 8  20352698.309 7                                       706.195 8                                                 106954354.476 8  83340923.992 7                                        48.900          42.100
G22  23943459.461 6  23943463.941 3                                     -1945.758 6                                                 125823662.805 6  98044471.631 3                                        40.200          22.500
G23  23216115.344 7  23216119.297 4                                      3051.273 7                                                 122001609.524 7  95066138.029 4                                        43.900          27.200
G26  20401865.016 8  20401874.090 7  20401873.387 8  20401872.801 9      -944.465 8                                                 107212620.198 8  83542299.875 7  83542257.881 8  80061330.742 9        52.100          45.500          50.400          54.700
G27  22738358.281 7  22738367.090 4  22738367.516 7  22738368.031 7      3571.371 7                                                 119491000.539 7  93109951.314 4  93109872.312 7  89230299.232 7        42.200          29.800          43.700          47.400
G31  21705298.594 8  21705304.102 6  21705304.070 7                     -1192.305 8                                                 114062156.807 8  88879649.364 6  88879616.363 7                        49.000          37.200          45.600
G32  23850722.992 4                  23850732.531 5  23850731.227 6     -3552.957 4                                                                                  97664694.90915  93595313.146 6        29.900                          32.300          36.500
J01  36990420.188 6  36990426.832 6  36990431.820 7      -484.082 6                                 194385919.211 6 151469540.694 6 145158307.226 7        38.300          38.800          43.600
J02  39540913.078 7  39540918.441 8  39540921.859 8       287.445 7                                 207788894.084 7 161913419.305 8 155167026.297 8        47.000          49.400          52.200
J03  37523947.500 7  37523953.559 8  37523957.094 8      -279.957 7                                 197189745.941 7 153654323.034 8 147252060.629 8        46.600          48.700          50.700
J07  36817628.828 6  36817634.391 8  36817638.457 8        -2.668 6                                 193477954.864 6 150762017.206 8 144480265.339 8        40.000          48.800          52.300
R03  22030466.969 6  22030466.547 6  22030472.840 6  22030473.121 6     -4127.777 6                                                 117930831.107 6 117930806.133 6  91723955.518 6  91723961.511 6        41.800          41.100          40.600          39.600
R04  20067767.469 8  20067766.785 8  20067770.855 8  20067771.395 7     -1080.316 8                                                 107462007.358 8 107462007.370 8  83581566.861 8  83581565.860 7        51.600          50.700          48.100          47.400
R05  22092803.891 7  22092803.320 7  22092807.797 7  22092808.516 7      2527.926 7                                                 118098886.222 7 118098696.228 7  91854540.349 7  91854561.354 7        45.700          43.400          43.000          42.300
R13  22445527.008 6  22445524.891 6  22445530.570 5  22445529.680 5     -2062.461 6                                                 119857927.649 6 119857911.629 6  93222827.696 5  93222833.723 5        39.900          38.100          34.900          34.100
R14  20488401.656 8  20488400.688 8  20488406.117 7  20488405.543 7      -437.430 8                                                 109214749.309 8 109214752.303 8  84944819.886 7  84944834.889 7        52.300          50.500          47.400          46.800
R15  22048330.758 7  22048329.922 7  22048334.176 7  22048335.449 7      1531.715 7                                                 117819609.780 7 117819634.785 7  91637510.303 7  91637518.300 7        46.000          44.300          42.200          42.100
R23  22087209.914 7  22087208.109 7  22087214.047 6  22087216.664 6      -238.102 7                                                 118151779.341 7 118151769.350 7  91895812.470 6  91895861.446 6        46.500          44.700          38.400          37.700
R24  21776412.180 6  21776411.797 6  21776416.355 5  21776416.293 5      2716.391 6                                                 116448392.662 6 116448402.682 6  90570888.685 5  90570923.665 5        41.600          40.100          32.000          31.900
S22  37585451.781 7  37584890.605 7        65.359 7                 197468781.159 7 147458539.841 7        42.100          43.200
S27  39746670.141 5  39746668.758 6        -1.691 5                 208870111.26515                        30.700          37.600
S29  37669080.094 6                        -7.430 6                 197952406.542 6                        38.300
S30  37500914.828 7                       -36.691 7                 197068634.744 7                        43.700
S32  37212210.500 6                        -1.008 6                 195551484.814 6                        37.500
S37  37669085.578 6                        -6.680 6                 197952335.279 6                        39.000
S40  37030662.266 7                        46.156 7                 194576978.380 7                        44.900
> 2019 02 14 07 00 30.0000000  0 52
C01  37349588.906 6  37349573.988 7  37349579.484 7        37.293 6        30.327 7        28.860 7 194489089.708 6 158038252.812 7 150391253.554 7        40.500          42.600          44.500
C02  37829331.672 6  37829321.684 7  37829326.223 7       -18.938 6       -15.371 7       -14.627 7 196987237.029 6 160068215.717 7 152322991.305 7        37.600          42.300          43.600
C03  36799075.094 6  36799064.270 7  36799070.414 7        25.117 6        20.510 7        19.517 7 191622422.603 6 155708865.728 7 148174582.383 7        41.600          44.700          44.800
C04  38689672.602 6  38689661.559 6  38689667.207 6        21.414 6        17.506 6        16.658 6 201467309.938 6 163708591.200 6 155787228.099 6        36.900          40.700          39.200
C05  39559428.430 5  39559419.145 6  39559424.977 6       -15.770 5                                 205996353.58715 167388846.25916 159289408.02216        33.700          38.400          37.500
C06  36322413.445 7  36322400.238 7  36322408.563 7      -917.395 7      -743.526 7      -707.549 7 189140333.981 7 153691957.762 7 146255275.066 7        45.300          46.400          44.900
C07  36247379.508 7  36247364.395 8  36247373.164 7      -208.898 7      -169.786 8      -161.570 7 188749637.862 7 153374485.785 8 145953171.107 7        47.900          48.000          47.400
C09  35716391.430 7  35716378.457 7  35716387.766 7      -432.520 7      -349.422 7      -332.514 7 185984614.406 7 151127682.964 7 143815085.053 7        47.200          47.400          47.600
C10  36998286.805 7  36998273.438 7  36998283.508 7       -67.137 7       -54.248 7       -51.623 7 192659816.113 7 156551861.232 7 148976786.718 7        45.700          45.400          45.400
C11  23443978.180 7  23443965.777 7  23443975.035 7      1225.211 7      1001.358 7       952.905 7 122078983.163 7  99199141.441 7  94399218.883 7        45.700          46.600          45.900
C16  36538923.625 7  36538913.574 7  36538923.711 7     -1012.355 7      -820.655 7      -780.946 7 190267753.872 7 154608150.015 7 147127087.876 7        46.400          45.700          45.000
C18  36918752.586 7  36918744.266 7                       -40.066 7       -32.788 7                 192245643.401 7 156215306.748 7                        46.500          45.400
C23  22768135.930 8  22768119.457 8                       803.449 8       653.866 8                 118559686.882 8  96339406.976 8                        49.000          49.400
C25  22934827.977 8  22934818.367 8                      -990.246 8      -803.677 8                 119427696.299 8  97044802.634 8                        48.200          49.000
C28  26269965.141 5  26269960.633 5                      3097.598 5      2515.713 5                 136794598.518 5 111156792.016 5                        32.800          33.200
E02  27447492.484 6  27447500.902 7  27447496.410 6  27447498.430 7      1610.391 6      1203.858 7      1235.262 6      1219.560 7 144237546.797 6 107709891.177 7 110519698.621 6 109114790.507 7        36.500          42.000          40.900          43.700
E03  24913890.633 7  24913896.805 8  24913893.652 8  24913894.688 8       963.766 7       724.541 8       743.443 8       733.992 8 130923391.646 7  97767508.875 8 100317946.206 8  99042722.641 8        47.900          48.500          48.300          50.900
E05  24061728.602 8  24061735.117 8  24061731.797 8  24061733.070 8     -1717.906 8     -1278.625 8     -1311.981 8     -1295.303 8 126445239.229 8  94423393.734 8  96886612.577 8  95655003.258 8        50.600          51.000          50.700          53.100
E09  25230047.445 6  25230059.105 6  25230054.500 6  25230056.480 7     -3038.637 6     -2268.678 6     -2327.863 6     -2298.270 7 132584725.520 6  99008076.822 6 101590880.896 6 100299473.462 7        36.200          41.000          39.600          43.300
E14  17803818.820 8  17803833.777 8  17803830.699 8  17803831.270 8      2142.031 8      1613.781 8      1655.879 8      1634.830 8  93559713.225 8  69866045.136 8  71688636.450 8  70777340.397 8        49.300          51.200          51.300          53.800
E24  22816028.938 8  22816045.805 8  22816042.191 8  22816043.234 8     -1339.590 8     -1000.118 8     -1026.208 8     -1013.164 8 119899077.438 8  89535035.886 8  91870731.447 8  90702884.267 8        49.700          50.000          49.500          52.700
E25  23591451.633 8  23591458.164 8  23591454.223 8  23591455.570 8       300.000 8       225.434 8       231.315 8       228.374 8 123973933.855 8  92577942.496 8  94993019.653 8  93785480.680 8        49.400          51.800          50.500          53.900
G03  23396433.000 7  23396442.195 4  23396442.980 6  23396444.426 7     -1519.824 7     -1179.574 4     -1179.573 6     -1130.426 7 122949010.011 7  95804513.390 4  95804495.394 6  91812640.050 7        43.300          27.300          41.500          46.300
G14  22108431.961 7  22108438.398 5                                     -2806.926 7     -2182.501 5                                 116180568.045 7  90530365.266 5                                        43.500          30.800
G16  20348705.234 8  20348710.328 7                                       690.707 8       544.322 7                                 106933398.043 8  83324594.323 7                                        48.300          42.100
G21  25522754.070 5                                                      1108.344 5                                                 134122990.02815                                                        32.400
G22  23954582.977 6  23954587.500 3                                     -1951.242 6     -1518.301 3                                 125882117.462 6  98090020.665 3                                        39.500          21.700
G23  23198718.391 7  23198722.254 4                                      3043.480 7      2374.567 4                                 121910188.676 7  94994901.022 4                                        43.600          28.200
G26  20407287.922 8  20407296.832 7  20407296.480 8  20407295.914 9      -955.316 8      -740.210 7      -740.210 8      -709.368 9 107241118.274 8  83564506.176 7  83564464.174 8  80082611.785 9        52.500          45.700          50.400          54.700
G27  22717987.734 7  22717996.758 5  22717997.281 7  22717997.496 7      3564.988 7      2780.426 5      2780.426 7      2664.574 7 119383954.052 7  93026538.540 5  93026459.540 7  89150362.019 7        42.500          31.000          43.700          47.600
G31  21712119.273 8  21712124.457 6  21712124.461 7                     -1197.320 8      -930.978 6      -930.979 7                 114097999.482 8  88907578.711 6  88907545.722 7                        48.900          37.800          45.600
G32  23871020.633 4                  23871029.527 5  23871030.023 6     -3558.996 4                                     -2655.191 6 125443022.62114                  97747814.05215  93674968.867 6        28.600                          30.400          36.200
J01  36993186.281 6  36993193.246 6  36993198.699 7      -485.063 6      -377.626 6      -361.891 7 194400457.861 6 151480869.471 6 145169163.968 7        38.400          39.000          43.900
J02  39539263.109 7  39539269.160 8  39539272.297 8       290.406 7       225.138 8       215.757 8 207780226.295 7 161906665.176 8 155160553.590 8        47.900          49.100          52.200
J03  37525552.047 7  37525557.809 8  37525561.129 8      -282.180 7      -218.966 8      -209.842 8 197198176.111 7 153660892.005 8 147258355.902 8        46.400          48.800          50.500
J07  36817644.203 6  36817650.066 8  36817653.750 8        -2.832 6        -2.088 8        -2.001 8 193478035.261 6 150762079.856 8 144480325.381 8        40.500          48.500          52.000
R03  22053620.992 7  22053620.242 6  22053627.035 6  22053626.324 6     -4135.004 7     -4131.419 6     -3213.322 6     -3213.322 6 118054773.701 7 118054748.713 6  91820355.165 6  91820361.162 6        42.700          41.600          39.800          39.800
R04  20073892.555 8  20073891.160 8  20073895.418 8  20073895.688 7     -1106.156 8     -1093.208 8      -850.272 8      -850.272 7 107494803.589 8 107494803.601 8  83607075.026 8  83607074.032 7        51.200          50.000          48.000          47.300
R05  22078675.461 7  22078674.637 7  22078679.457 7  22078679.234 7      2507.016 7      2517.545 7      1958.090 7      1958.090 7 118023359.860 7 118023169.877 7  91795797.655 7  91795818.652 7        46.300          45.100          42.700          42.500
R13  22457110.852 6  22457108.637 6  22457114.594 5  22457114.813 5     -2061.684 6     -2062.078 6     -1603.837 5     -1603.836 5 119919789.934 6 119919773.971 6  93270942.820 5  93270948.789 5        38.400          37.400          35.600          35.100
R14  20490873.141 8  20490872.699 8  20490877.691 7  20490876.965 7      -440.949 8      -439.187 8      -341.591 7      -341.590 7 109227924.918 8 109227927.926 8  84955067.611 7  84955082.590 7        52.300          50.800          47.600          46.800
R15  22039741.883 7  22039741.516 7  22039746.277 7  22039747.645 7      1527.727 7      1529.701 7      1189.766 7      1189.766 7 117773718.749 7 117773743.767 7  91601817.316 7  91601825.322 7        44.800          42.900          43.200          42.200
R17  23550964.539 5  23550963.367 5  23550974.633 5  23550975.270 5      3989.168 5                                                 126025945.95315 126025988.96915  98020220.13615  98020238.13315        33.900          33.400          34.100          34.000
R23  22088615.570 7  22088613.855 7  22088618.520 6  22088621.016 6      -263.266 7      -250.652 7      -194.952 6      -194.952 6 118159298.904 7 118159288.902 7  91901661.016 6  91901710.021 6        45.600          44.300          37.300          36.600
R24  21761217.109 6  21761216.508 6  21761221.793 5  21761220.934 5      2700.418 6      2708.430 6      2106.552 5      2106.553 5 116367139.781 6 116367149.785 6  90507692.112 5  90507727.072 5        41.000          39.900          31.000          31.000
S22  37585072.234 6  37584511.254 7        65.609 6        48.805 7 197466815.683 6 147457075.696 7        41.800          43.100
S27  39746679.516 5  39746674.801 6        -1.996 5                 208870167.31215                        31.500          38.100
S29  37669123.578 6                        -6.926 6                 197952607.309 6                        38.500
S30  37501126.563 7                       -36.816 7                 197069735.642 7                        44.400
S32  37212201.016 6                         -.820 6                 195551514.042 6                        37.100
S37  37669123.281 6                        -6.898 6                 197952535.051 6                        39.200
S40  37030507.219 7                        46.504 7                 194575596.548 7                        44.900
> 2019 02 14 07 01  0.0000000  0 50
C01  37349374.094 6  37349358.820 7  37349364.504 7        37.453 6        30.331 7        28.863 7 194487969.895 6 158037342.879 7 150390387.656 7        40.700          43.300          44.500
C02  37829440.773 6  37829430.246 7  37829434.766 7       -18.691 6       -15.314 7       -14.573 7 196987802.405 6 160068675.136 7 152323428.507 7        37.600          42.300          43.000
C03  36798929.930 6  36798918.695 7  36798924.715 7        25.367 6        20.514 7        19.521 7 191621665.237 6 155708250.316 7 148173996.756 7        41.600          44.200          44.700
C04  38689548.297 6  38689537.137 6  38689542.934 6        21.656 6        17.530 6        16.682 6 201466662.707 6 163708065.293 6 155786727.636 6        36.600          40.700          38.800
C06  36327711.320 7  36327698.063 7  36327706.156 7      -921.652 7      -747.213 7      -711.057 7 189167920.594 7 153714374.142 7 146276606.774 7        45.200          46.000          45.400
C07  36248582.398 7  36248567.086 7  36248575.996 7      -208.598 7      -169.647 7      -161.439 7 188755901.142 7 153379575.205 7 145958014.272 7        47.800          47.800          47.800
C09  35718897.578 7  35718884.551 7  35718893.805 7      -437.273 7      -353.459 7      -336.356 7 185997663.898 7 151138286.735 7 143825175.737 7        46.700          47.300          47.900
C10  36998674.930 7  36998661.500 7  36998671.434 7       -67.551 7       -54.733 7       -52.085 7 192661836.825 7 156553503.230 7 148978349.271 7        45.100          45.300          45.500
C11  23436959.719 7  23436947.406 7  23436956.453 7      1211.336 7       989.946 7       942.046 7 122042434.952 7  99169443.047 7  94370957.512 7        45.800          47.100          46.200
C16  36544768.117 7  36544758.625 7  36544768.738 7     -1016.762 7      -824.389 7      -784.499 7 190298189.782 7 154632881.680 7 147150622.848 7        46.700          45.100          45.200
C18  36918981.094 7  36918972.832 7                       -39.145 7       -32.227 7                 192246833.195 7 156216273.555 7                        46.800          45.900
C23  22763514.328 8  22763497.813 8                       801.070 8       651.829 8                 118535621.766 8  96319852.100 8                        49.100          49.900
C25  22940539.898 8  22940529.867 8                      -992.402 8      -805.582 8                 119457437.890 8  97068970.105 8                        48.600          48.400
C28  26252105.164 5  26252100.797 5                      3102.188 5      2519.026 5                 136701597.689 5 111081221.243 5                        33.400          35.300
E02  27438308.805 6  27438316.770 6  27438313.066 6  27438314.156 7      1606.988 6      1201.370 6      1232.712 6      1217.041 7 144189282.944 6 107673850.065 6 110482717.276 6 109078279.279 7        37.200          41.600          41.200          44.000
E03  24908424.836 7  24908430.793 8  24908427.746 8  24908428.977 8       951.145 7       714.962 8       733.613 8       724.287 8 130894668.817 7  97746060.008 8 100295937.815 8  99020994.017 8        47.300          48.800          49.000          51.200
E05  24071566.906 8  24071573.539 8  24071570.137 8  24071571.336 8     -1728.762 8     -1286.914 8     -1320.486 8     -1303.700 8 126496939.638 8  94462001.156 8  96926227.165 8  95694114.268 8        50.800          50.700          50.500          53.300
E09  25247397.563 6  25247408.480 6  25247404.301 6  25247405.980 7     -3039.285 6     -2269.363 6     -2328.566 6     -2298.964 7 132675895.296 6  99076157.697 6 101660737.879 6 100368442.390 7        36.400          41.600          40.600          43.700
E14  17791698.586 8  17791713.367 8  17791710.313 8  17791711.078 8      2104.129 8      1585.402 8      1626.760 8      1606.081 8  93496021.400 8  69818483.082 8  71639833.634 8  70729157.964 8        49.000          51.100          50.900          53.300
E24  22823676.867 8  22823693.996 8  22823690.375 8  22823691.438 8     -1339.844 8     -1000.433 8     -1026.531 8     -1013.482 8 119939268.761 8  89565048.873 8  91901527.388 8  90733288.731 8        48.500          50.100          49.000          52.200
E25  23589748.484 8  23589755.086 8  23589751.246 8  23589752.543 8       296.660 8       222.773 8       228.585 8       225.679 8 123964984.175 8  92571259.297 8  94986162.113 8  93778710.309 8        49.800          51.200          50.700          53.600
G03  23405142.680 7  23405151.961 4  23405152.141 6  23405154.246 7     -1531.453 7     -1188.810 4     -1188.810 6     -1139.276 7 122994779.260 7  95840177.699 4  95840159.698 6  91846818.327 7        42.700          27.600          41.600          46.600
G14  22124488.695 7  22124495.699 5                                     -2818.332 7     -2191.685 5                                 116264947.982 7  90596115.827 5                                        43.000          30.500
G16  20344805.602 8  20344811.086 7                                       675.516 8       532.286 7                                 106912905.014 8  83308625.740 7                                        48.700          42.200
G21  25516440.484 5                                                      1102.773 5                                                 134089818.93615                                                        31.500
G22  23965737.617 6  23965742.375 3                                     -1956.492 6     -1522.578 3                                 125940736.825 6  98135698.021 3                                        38.600          21.500
G23  23181365.438 7  23181369.656 4                                      3035.828 7      2368.532 4                                 121819000.138 7  94923845.048 4                                        43.700          28.700
G26  20412772.375 8  20412781.121 7  20412780.902 8  20412780.168 9      -965.902 8      -748.585 7      -748.585 8      -717.394 9 107269938.818 8  83586963.739 7  83586921.737 8  80104133.611 9        51.500          45.900          50.000          54.600
G27  22697654.492 7  22697663.605 5  22697663.574 7  22697663.965 7      3558.645 7      2775.385 5      2775.385 7      2659.743 7 119277101.626 7  92943277.007 5  92943198.002 7  89070569.717 7        42.300          31.500          44.000          47.600
G31  21718967.953 8  21718973.465 6  21718973.891 7                     -1202.133 8      -934.839 6      -934.839 7                 114133990.777 8  88935623.888 6  88935590.888 7                        48.600          37.500          44.900
G32  23891352.164 4                  23891359.945 5  23891362.035 5     -3563.621 4                                     -2659.288 5                                  97831061.30515  93754747.517 5        28.300                          30.500          35.700
J01  36995959.078 6  36995965.496 6  36995970.973 7      -485.906 6      -378.431 6      -362.661 7 194415027.494 6 151492222.400 6 145180043.810 7        38.400          38.200          43.600
J02  39537596.531 7  39537602.293 8  39537605.410 8       293.570 7       227.511 8       218.031 8 207771467.144 7 161899839.855 8 155154012.658 8        47.200          49.600          52.100
J03  37527168.203 7  37527173.672 8  37527177.191 8      -283.973 7      -220.621 8      -211.429 8 197206669.981 7 153667510.641 8 147264698.764 8        46.000          49.200          50.600
J07  36817658.688 6  36817664.863 8  36817668.988 8        -2.484 6        -2.081 8        -1.995 8 193478115.370 6 150762142.299 8 144480385.230 8        39.900          48.500          52.200
R03  22076814.281 7  22076813.414 6  22076820.449 6  22076819.488 6     -4141.793 7     -4138.452 6     -3218.791 6     -3218.792 6 118178927.267 7 118178902.275 6  91916918.901 6  91916924.905 6        42.600          41.300          39.800          39.400
R04  20080161.039 8  20080159.813 8  20080164.352 7  20080164.410 7     -1131.754 8     -1118.992 8      -870.326 7      -870.326 7 107528373.345 8 107528373.357 8  83633184.815 7  83633183.820 7        51.400          50.400          47.400          47.500
R05  22064665.164 7  22064664.039 7  22064667.836 7  22064668.500 6      2486.145 7      2496.550 7      1941.759 7      1941.759 6 117948463.385 7 117948273.384 7  91737544.879 7  91737565.880 6        46.700          45.100          43.200          41.900
R13  22468690.484 6  22468689.371 6  22468696.125 5  22468695.293 6     -2061.027 6     -2061.345 6     -1603.267 5     -1603.270 6 119981630.357 6 119981614.333 6  93319040.844 5  93319046.887 6        37.900          37.400          35.000          36.100
R14  20493364.602 8  20493364.027 8  20493369.375 7  20493368.797 7      -444.336 8      -442.702 8      -344.323 7      -344.324 7 109241205.990 8 109241208.992 8  84965397.310 7  84965412.305 7        51.500          50.200          47.700          46.900
R15  22031176.078 7  22031176.766 7  22031181.582 7  22031181.926 7      1523.875 7      1525.715 7      1186.665 7      1186.666 7 117727947.293 7 117727972.314 7  91566217.354 7  91566225.356 7        45.300          43.600          43.100          42.200
R17  23528592.930 5  23528590.004 5  23528603.234 5  23528603.324 5      3991.727 5      3990.444 5      3103.663 5      3103.662 5 125906232.635 5 125906275.661 5  97927110.247 5  97927128.271 5        34.600          32.700          33.500          33.800
R23  22090161.664 7  22090160.023 7  22090165.074 6  22090167.852 6      -288.137 7      -275.769 7      -214.488 6      -214.488 6 118167571.967 7 118167561.983 7  91908095.645 6  91908144.658 6        45.500          44.500          37.600          36.400
R24  21746111.953 6  21746111.391 6  21746116.996 5  21746117.379 5      2684.508 6      2692.390 6      2094.081 5      2094.080 5 116286368.041 6 116286378.074 6  90444869.688 5  90444904.682 5        40.600          39.100          32.400          32.500
S22  37584694.594 7  37584132.012 7        65.770 7        48.834 7 197464855.146 7 147455610.668 7        42.000          43.800
S29  37669163.922 6                        -6.633 6                 197952806.799 6                        38.800
S30  37501336.828 7                       -36.738 7                 197070839.740 7                        43.600
S32  37212215.969 6                         -.996 6                 195551545.041 6                        37.800
S37  37669149.734 6                        -6.316 6                 197952733.369 6                        39.400
S40  37030337.563 7                        46.082 7                 194574220.181 7                        44.900
> 2019 02 14 07 01 30.0000000  0 51
C01  37349158.719 6  37349144.016 7  37349149.895 7        37.438 6        30.309 7        28.842 7 194486850.888 6 158036433.609 7 150389522.392 7        40.700          43.000          44.700
C02  37829549.320 6  37829538.660 7  37829543.195 7       -18.590 6       -15.278 7       -14.539 7 196988366.455 6 160069133.486 7 152323864.682 7        37.500          42.600          43.300
C03  36798784.398 6  36798773.391 7  36798779.520 7        25.375 6        20.495 7        19.503 7 191620908.565 6 155707635.465 7 148173411.657 7        41.700          44.300          44.800
C04  38689423.711 6  38689412.758 6  38689418.496 6        21.711 6        17.531 6        16.683 6 201466015.435 6 163707539.348 6 155786227.153 6        36.600          41.000          38.900
C05  39559608.867 5  39559599.766 6  39559606.340 6       -15.410 5                                 205997295.38415 167389611.76816 159290137.55016        33.700          38.600          37.300
C06  36333035.047 7  36333022.113 7  36333030.152 7      -926.273 7      -750.917 7      -714.582 7 189195643.951 7 153736901.647 7 146298044.234 7        45.200          46.400          45.400
C07  36249784.070 7  36249769.051 7  36249777.738 7      -208.309 7      -169.516 7      -161.314 7 188762159.572 7 153384660.698 7 145962853.686 7        47.300          47.700          47.800
C09  35721432.422 7  35721419.430 7  35721428.902 8      -442.281 7      -357.521 7      -340.222 8 186010863.347 7 151149012.357 7 143835382.388 8        47.000          47.200          48.000
C10  36999066.227 7  36999053.117 7  36999063.051 7       -68.172 7       -55.230 7       -52.558 7 192663875.872 7 156555160.130 7 148979926.001 7        45.000          45.200          45.200
C11  23430022.352 7  23430010.340 7  23430019.262 7      1197.207 7       978.465 7       931.120 7 122006310.641 7  99140089.104 7  94343023.927 7        45.500          46.900          46.300
C16  36550639.844 7  36550630.055 7  36550640.027 7     -1021.270 7      -828.141 7      -788.070 7 190328764.211 7 154657725.910 7 147174264.933 7        46.300          44.800          45.400
C18  36919205.875 7  36919197.477 7                       -38.414 7       -31.679 7                 192248002.735 7 156217223.911 7                        46.500          45.700
C23  22758907.391 8  22758891.082 8                       798.625 8       649.775 8                 118511632.467 8  96300358.844 8                        49.100          49.500
C25  22946264.891 7  22946255.098 8                      -994.727 7      -807.515 8                 119487250.833 7  97093195.549 8                        47.600          48.900
C28  26234222.688 5  26234218.555 5                      3106.188 5      2522.265 5                 136608477.272 5 111005553.297 5                        33.300          35.000
E02  27429143.320 6  27429151.059 6  27429147.875 6  27429148.785 7      1604.184 6      1198.876 6      1230.151 6      1214.513 7 144141119.247 6 107637883.782 6 110445812.762 6 109041843.876 7        38.900          41.400          41.100          44.200
E03  24903032.430 7  24903038.676 8  24903035.398 8  24903036.816 8       938.332 7       705.341 8       723.741 8       714.541 8 130866332.521 7  97724899.782 8 100274225.592 8  98999557.794 8        47.100          48.900          48.500          51.100
E05  24081468.484 8  24081474.902 8  24081471.512 8  24081472.934 8     -1739.828 8     -1295.193 8     -1328.980 8     -1312.086 8 126548972.597 8  94500856.935 8  96966096.570 8  95733476.857 8        50.700          51.000          51.500          53.600
E09  25264751.547 6  25264763.199 6  25264759.008 6  25264760.457 7     -3040.020 6     -2270.026 6     -2329.244 6     -2299.635 7 132767091.697 6  99144258.470 6 101730615.211 6 100437431.458 7        36.500          41.100          40.200          43.600
E14  17779796.656 8  17779811.176 8  17779807.906 8  17779808.984 8      2065.816 8      1556.867 8      1597.481 8      1577.174 8  93433475.956 8  69771777.075 8  71591909.206 8  70681842.746 8        48.800          51.000          51.200          53.600
E24  22831327.398 8  22831344.352 8  22831340.938 8  22831342.066 8     -1340.152 8     -1000.753 8     -1026.860 8     -1013.806 8 119979472.939 8  89595071.457 8  91932333.177 8  90763702.920 8        48.300          49.100          49.100          52.000
E25  23588065.797 8  23588072.109 8  23588068.273 8  23588069.832 9       293.219 8       220.113 8       225.855 8       222.984 9 123956141.362 8  92564655.912 8  94979386.461 8  93772020.793 9        49.500          51.500          50.200          54.300
G03  23413919.469 7  23413929.684 4  23413929.473 6  23413930.934 7     -1543.105 7     -1197.998 4     -1197.998 6     -1148.081 7 123040902.187 7  95876117.642 4  95876099.646 6  91881260.747 7        42.100          27.500          41.400          46.400
G14  22140612.992 7  22140619.543 5                                     -2830.043 7     -2200.844 5                                 116349680.498 7  90662141.133 5                                        43.000          31.000
G16  20340994.172 8  20340999.379 6                                       660.133 8       520.242 6                                 106892875.691 8  83293018.486 6                                        48.800          41.900
G22  23976922.930 6  23976928.734 3                                     -1961.766 6     -1526.815 3                                 125999519.313 6  98181502.468 3                                        39.000          22.500
G23  23164057.977 7  23164062.316 4                                      3027.914 7      2362.415 4                                 121728047.105 7  94852972.590 4                                        43.200          29.400
G26  20418317.641 8  20418326.672 7  20418326.223 8  20418325.488 9      -976.484 8      -756.933 7      -756.934 8      -725.394 9 107299080.745 8  83609671.737 7  83609629.749 8  80125895.437 9        52.000          45.800          49.900          54.600
G27  22677358.445 7  22677368.328 5  22677368.059 7  22677368.063 7      3551.965 7      2770.241 5      2770.241 7      2654.813 7 119170447.234 7  92860169.764 5  92860090.759 7  88990925.316 7        43.100          31.500          44.300          47.500
G31  21725845.500 8  21725851.285 6  21725851.168 7                     -1207.051 8      -938.737 6      -938.737 7                 114170132.177 8  88963786.009 6  88963753.008 7                        49.100          37.800          45.300
G32  23911713.750 4                  23911722.145 5  23911723.953 5     -3569.453 4                     -2779.146 5     -2663.344 5 125656854.48614                  97914435.687 5  93834647.841 5        29.400                          31.400          35.200
J01  36998737.438 6  36998744.488 6  36998749.383 7      -487.020 6      -379.240 6      -363.439 7 194429628.356 6 151503599.614 6 145190946.977 7        37.900          39.100          43.600
J02  39535912.469 7  39535918.523 8  39535921.453 8       296.738 7       229.863 8       220.286 8 207762617.413 7 161892943.960 8 155147404.088 8        46.900          49.700          52.000
J03  37528796.641 7  37528802.527 8  37528805.688 8      -286.207 7      -222.295 8      -213.033 8 197215228.357 7 153674179.501 8 147271089.755 8        46.200          48.400          50.500
J07  36817674.578 6  36817680.242 8  36817684.281 8        -2.363 6        -2.094 8        -2.007 8 193478195.977 6 150762205.133 8 144480445.450 8        39.900          48.800          52.300
R03  22100046.742 7  22100045.355 6  22100051.992 6  22100052.000 6     -4148.625 7     -4145.353 6     -3224.160 6     -3224.160 6 118303287.883 7 118303262.873 6  92013643.699 6  92013649.692 6        42.600          41.500          40.200          40.200
R04  20086573.734 8  20086573.012 8  20086577.320 7  20086577.457 7     -1157.426 8     -1144.751 8      -890.361 7      -890.361 7 107562715.863 8 107562715.874 8  83659895.636 7  83659894.642 7        50.800          49.600          47.900          47.500
R05  22050771.914 7  22050771.469 7  22050776.391 7  22050775.984 7      2465.031 7      2475.424 7      1925.330 7      1925.330 7 117874200.652 7 117874010.655 7  91679784.972 7  91679805.983 7        46.500          45.400          42.800          42.500
R13  22480268.773 6  22480267.117 6  22480272.734 6  22480272.297 5     -2060.059 6     -2060.625 6     -1602.707 6     -1602.707 5 120043449.090 6 120043433.065 6  93367122.050 6  93367128.085 5        39.500          37.900          36.000          35.800
R14  20495875.875 8  20495875.723 8  20495880.305 8  20495880.145 7      -447.883 8      -446.219 8      -347.059 8      -347.059 7 109254592.554 8 109254595.550 8  84975809.075 8  84975824.071 7        52.200          50.200          48.100          47.500
R15  22022633.953 7  22022633.918 7  22022638.375 7  22022638.527 7      1519.891 7      1521.731 7      1183.568 7      1183.568 7 117682295.391 7 117682320.383 7  91530710.326 7  91530718.330 7        46.700          45.100          43.000          42.400
R17  23506208.359 5  23506206.336 5  23506217.711 5  23506218.328 5      3993.973 5      3992.798 5      3105.494 5      3105.494 5 125786448.755 5 125786491.717 5  97833945.440 5  97833963.451 5        35.200          34.100          34.600          33.600
R23  22091849.328 7  22091848.117 7  22091853.602 6  22091855.465 5      -313.375 7      -300.908 7      -234.041 6      -234.040 5 118176599.221 7 118176589.235 7  91915116.862 6  91915165.857 5        46.000          44.500          37.200          35.800
R24  21731099.266 7  21731098.418 6  21731102.266 5  21731102.684 5      2668.176 7      2676.178 6      2081.469 5      2081.469 5 116206082.732 7 116206092.744 6  90382425.611 5  90382460.610 5        42.200          40.300          31.600          30.500
S22  37584313.594 6  37583753.273 7        65.441 6        48.793 7 197462897.953 6 147454146.886 7        41.800          43.800
S27  39746701.016 5  39746697.539 6        -1.723 5                 208870276.59115                        30.800          38.100
S29  37669207.406 6                        -6.668 6                 197953007.644 6                        38.200
S30  37501544.859 7                       -36.773 7                 197071947.857 7                        43.700
S32  37212227.266 6                         -.879 6                 195551573.513 6                        37.200
S37  37669200.313 6                        -6.582 6                 197952934.452 6                        39.500
S40  37030181.547 7                        46.246 7                 194572835.409 7                        45.000
> 2019 02 14 07 02  0.0000000  0 52
C01  37348944.117 6  37348929.219 7  37348934.625 7        37.465 6        30.302 7        28.836 7 194485732.144 6 158035524.555 7 150388657.318 7        40.600          43.200          44.500
C02  37829656.969 6  37829646.410 7  37829651.168 7       -18.594 6       -15.234 7       -14.497 7 196988928.878 6 160069590.509 7 152324299.594 7        37.400          42.200          42.500
C03  36798639.086 6  36798628.066 7  36798634.523 7        25.305 6        20.487 7        19.495 7 191620152.201 6 155707020.865 7 148172826.802 7        41.800          44.400          44.100
C04  38689299.500 6  38689288.438 6  38689293.863 6        21.789 6        17.546 6        16.697 6 201465367.648 6 163707012.979 6 155785726.247 6        36.400          40.800          38.800
C05  39559698.117 5  39559689.512 6  39559695.469 6       -15.527 5                                 205997761.80315 167389991.59116 159290497.99916        34.000          37.900          37.100
C06  36338385.156 7  36338372.277 7  36338380.164 7      -930.840 7      -754.610 7      -718.097 7 189223503.663 7 153759539.944 7 146319587.132 7        45.300          46.000          45.700
C07  36250985.055 7  36250969.863 7  36250978.590 7      -208.242 7      -169.373 7      -161.177 7 188768412.714 7 153389741.890 7 145967689.003 7        47.700          47.800          47.600
C09  35723995.773 7  35723982.977 7  35723992.676 7      -447.402 7      -361.579 7      -344.083 7 186024212.590 7 151159859.716 7 143845704.866 7        46.400          47.000          47.600
C10  36999461.406 7  36999448.148 7  36999458.164 7       -68.758 7       -55.703 7       -53.008 7 192665932.402 7 156556831.229 7 148981516.243 7        44.500          45.200          45.000
C11  23423165.930 7  23423154.922 7  23423163.348 7      1182.969 7       966.952 7       920.163 7 121970611.389 7  99111080.558 7  94315419.027 7        44.700          47.000          46.200
C16  36556538.313 7  36556527.809 7  36556537.871 7     -1025.957 7      -831.879 7      -791.627 7 190359476.645 7 154682682.275 7 147198013.736 7        46.700          45.000          45.200
C18  36919426.125 7  36919417.867 7                       -37.770 7       -31.111 7                 192249151.320 7 156218157.233 7                        45.600          45.800
C23  22754315.195 8  22754298.703 8                       795.945 8       647.734 8                 118487718.517 8  96280926.811 8                        49.300          48.800
C25  22952003.492 7  22951993.996 8                      -997.285 7      -809.443 8                 119517134.967 7  97117478.845 8                        47.800          48.600
C28  26216317.531 5  26216313.348 5                      3109.844 5      2525.460 5                 136515238.898 5 110929789.506 5                        32.800          35.900
E02  27419997.125 6  27420003.551 6  27420000.695 6  27420002.199 7      1600.480 6      1196.401 6      1227.613 6      1212.007 7 144093055.009 6 107601991.753 6 110408984.364 6 109005483.675 7        39.100          40.400          40.000          42.800
E03  24897713.859 7  24897720.656 8  24897717.020 8  24897718.281 8       925.313 7       695.708 8       713.857 8       704.782 8 130838383.235 7  97704028.554 8 100252809.898 8  98978414.323 8        47.300          48.500          48.900          51.200
E05  24091432.953 8  24091439.383 8  24091436.074 8  24091437.438 8     -1750.906 8     -1303.430 8     -1337.432 8     -1320.431 8 126601336.475 8  94539959.828 8  97006219.536 8  95773089.785 8        50.200          50.900          50.700          52.900
E09  25282110.898 6  25282122.441 6  25282118.918 6  25282119.629 7     -3040.938 6     -2270.637 6     -2329.874 6     -2300.255 7 132858312.740 6  99212377.590 6 101800511.419 6 100506439.108 7        36.400          41.500          40.800          43.700
E14  17768113.453 8  17768128.684 8  17768124.328 8  17768126.113 8      2027.262 8      1528.206 8      1568.073 8      1548.139 8  93372081.899 8  69725930.892 8  71544867.030 8  70635398.568 8        48.600          50.800          50.300          53.000
E24  22838980.195 8  22838997.383 8  22838993.793 8  22838994.973 8     -1340.660 8     -1001.049 8     -1027.163 8     -1014.106 8 120019688.995 8  89625102.924 8  91963148.067 8  90794126.102 8        48.500          49.700          48.900          52.100
E25  23586403.203 8  23586409.445 8  23586405.949 8  23586407.285 8       289.523 8       217.482 8       223.155 8       220.318 8 123947404.261 8  92558131.452 8  94972691.806 8  93765411.239 8        49.800          51.000          50.900          53.100
G03  23422763.523 6  23422772.805 4  23422772.676 6  23422773.773 7     -1554.930 6     -1207.109 4     -1207.109 6     -1156.812 7 123087375.928 6  95912330.907 4  95912312.917 6  91915965.119 7        41.700          27.200          41.300          45.800
G14  22156803.641 7  22156810.074 4                                     -2841.879 7     -2209.952 4                                 116434763.698 7  90728439.684 4                                        43.000          29.600
G16  20337270.859 8  20337275.648 6                                       644.629 8       508.229 6                                 106873308.858 8  83277771.625 6                                        49.200          41.800
G21  25503910.367 4                                                      1091.773 4                                                 134023983.13614                                                        29.100
G22  23988140.547 6  23988145.469 3                                     -1967.359 6     -1530.971 3                                 126058461.836 6  98227431.604 3                                        37.900          22.300
G23  23146795.320 7  23146799.516 4                                      3019.879 7      2356.237 4                                 121637331.925 7  94782285.475 4                                        43.500          29.100
G26  20423924.227 8  20423932.391 7  20423932.414 8  20423931.875 9      -987.293 8      -765.227 7      -765.226 8      -733.342 9 107328541.977 8  83632628.542 7  83632586.540 8  80147895.707 9        52.600          45.300          50.000          54.700
G27  22657101.156 7  22657110.328 5  22657109.910 7  22657111.043 7      3545.109 7      2765.024 5      2765.024 7      2649.815 7 119063993.672 7  92777219.032 5  92777140.037 7  88911430.876 7        42.500          31.300          44.100          47.900
G31  21732751.414 8  21732757.359 6  21732757.250 7                     -1212.195 8      -942.639 6      -942.639 7                 114206423.796 8  88992065.180 6  88992032.174 7                        48.700          37.300          45.400
G32  23932105.008 5                  23932113.250 5  23932116.012 5     -3574.664 5                     -2783.312 5     -2667.341 5 125764012.39115                  97997935.033 5  93914668.080 5        31.200                          30.900          34.600
J01  37001522.281 6  37001529.191 6  37001533.820 7      -488.199 6      -380.036 6      -364.201 7 194444259.846 6 151515000.691 6 145201873.004 7        37.000          38.600          44.100
J02  39534211.172 7  39534216.809 8  39534220.008 8       299.684 7       232.222 8       222.546 8 207753676.840 7 161885977.285 8 155140727.694 8        47.100          49.600          51.900
J03  37530438.016 7  37530443.258 8  37530446.570 8      -288.414 7      -223.961 8      -214.629 8 197223850.811 7 153680898.327 8 147277528.618 8        46.400          49.100          50.800
J07  36817690.156 6  36817695.547 8  36817699.625 8        -2.566 6        -2.097 8        -2.010 8 193478276.703 6 150762268.053 8 144480505.741 8        40.200          48.800          52.200
R03  22123315.938 7  22123315.461 6  22123321.695 6  22123321.953 6     -4155.414 7     -4152.105 6     -3229.410 6     -3229.410 6 118427851.017 7 118427826.030 6  92110525.992 6  92110531.998 6        43.700          41.800          40.200          39.400
R04  20093131.156 8  20093129.711 8  20093134.223 7  20093134.227 7     -1183.113 8     -1170.409 8      -910.317 7      -910.317 7 107597828.119 8 107597828.131 8  83687205.158 7  83687204.163 7        50.600          49.600          47.200          46.800
R05  22036998.977 7  22036998.441 7  22037002.996 7  22037002.719 7      2443.645 7      2454.208 7      1908.827 7      1908.827 7 117800574.435 7 117800384.432 7  91622520.175 7  91622541.168 7        47.200          46.100          42.900          42.800
R13  22491841.406 6  22491839.543 6  22491844.887 5  22491844.516 5     -2059.465 6     -2059.905 6     -1602.148 5     -1602.147 5 120105246.211 6 120105230.222 6  93415186.487 5  93415192.503 5        39.400          38.200          35.400          35.100
R14  20498407.109 8  20498406.313 8  20498410.824 8  20498411.000 7      -451.355 8      -449.698 8      -349.765 8      -349.764 7 109268083.483 8 109268086.477 8  84986302.018 8  84986317.005 7        51.900          50.000          48.400          47.700
R15  22014112.109 7  22014112.730 7  22014116.402 7  22014117.754 7      1515.973 7      1517.794 7      1180.505 7      1180.506 7 117636761.559 7 117636786.565 7  91495295.168 7  91495303.145 7        46.200          44.500          43.000          43.100
R17  23483811.094 6  23483809.563 5  23483820.664 5  23483820.848 5      3996.297 6      3995.034 5      3107.233 5      3107.233 5 125666597.694 6 125666640.710 5  97740728.457 5  97740746.450 5        36.000          34.900          34.600          34.000
R23  22093677.438 7  22093676.277 7  22093683.254 6  22093683.680 6      -338.625 7      -326.055 7      -253.599 6      -253.599 6 118186380.883 7 118186370.892 7  91922724.828 6  91922773.815 6        45.500          44.700          36.900          36.500
